     2.11           OBSERVATION DATA    M (MIXED)           RINEX VERSION / TYPE
teqc  2013Mar15                         20150319 01:10:02UTCPGM / RUN BY / DATE
MSXP|IAx86-PII|bcc32 5.0|MSWin95->XP|486/DX+                COMMENT
BIT 2 OF LLI FLAGS DATA COLLECTED UNDER A/S CONDITION       COMMENT
-Unknown-                                                   MARKER NAME
MTKA                                                        MARKER NUMBER
-Unknown-           -Unknown-                               OBSERVER / AGENCY
-Unknown-           ASHTECH             -Unknown-           REC # / TYPE / VERS
-Unknown-           -Unknown-                               ANT # / TYPE
 -3947778.7069  3364411.7524  3699448.9683                  APPROX POSITION XYZ
        0.0000        0.0000        0.0000                  ANTENNA: DELTA H/E/N
     1     1                                                WAVELENGTH FACT L1/2
     7    L1    L2    C1    P1    P2    S1    S2            # / TYPES OF OBSERV
 SNR is mapped to RINEX snr flag value [1-9]                COMMENT
  L1: 1 -> 1;  90 -> 5; 210 -> 9                            COMMENT
  L2: 1 -> 1; 150 -> 5; 250 -> 9                            COMMENT
pseudorange smoothing corrections not applied               COMMENT
  2015     3    18     0     1    0.0000000     GPS         TIME OF FIRST OBS
    16                                                      LEAP SECONDS
                                                            END OF HEADER
 15  3 18  0  1  0.0000000  0 14G30G10G24G13G05G29G15G20G28R21R05R07
                                R23R08
 -10929371.166 2  -8516390.371 2  23541733.940    23541733.940    23541740.951
        27.000          27.000
   -898558.615 2   -700190.373 1  25333369.570    25333369.570    25333376.438
        15.000          15.000
    170080.105 2    132528.973 2  24002798.418    24002798.418    24002805.658
        21.000          21.000
 -12813328.178 3  -9984409.014 2  20417280.843    20417280.843    20417282.502
        40.000          40.000
 -20811493.306 3 -16216747.872 2  20845109.130    20845109.130    20845111.563
        41.000          41.000
   1507967.441 2   1175642.657 2  24428398.898    24428398.898    24428402.790
        22.000          22.000
 -12523983.893 3  -9758945.124 2  21110362.528    21110362.528    21110365.418
        38.000          39.000
   -704147.453 2   -548695.495 2  24432272.039    24432272.039    24432279.823
        21.000          21.000
  -1400702.129 1  -1091451.445 1  24860418.761    24860418.761    24860419.419
        12.000          12.000
  -5613885.318 3  -4366365.111 1  23188486.935    23188486.935    23188494.268
        40.000          19.000
   6302389.328 2   4901847.483 1  23979534.964    23979534.964    23979540.005
        31.000          18.000
 -17684882.939 3 -13754903.420 1  20773449.152    20773449.152    20773453.850
        47.000          18.000
   -915726.790 3                  23214906.190    23214906.190
        39.000
  -1263595.297 3   -982795.021 1  24194362.601    24194362.601    24194367.127
        36.000          18.000
 15  3 18  0  1 30.0000000  0 14G30G10G24G13G05G29G15G20G28R21R05R07
                                R23R08
 -10846741.413 2  -8452003.583 2  23557458.012    23557458.012    23557463.993
        26.000          26.000
   -808826.112 2   -630269.186 1  25350443.696    25350443.696    25350451.337
        16.000          16.000
     56747.677 2     44218.086 2  23981231.401    23981231.401    23981238.069
        20.000          20.000
 -12791400.870 3  -9967322.810 2  20421453.323    20421453.323    20421455.212
        40.000          40.000
 -20783576.859 3 -16194994.815 2  20850421.405    20850421.405    20850423.923
        41.000          41.000
   1578236.302 2   1230397.593 2  24441770.184    24441770.184    24441773.990
        22.000          22.000
 -12564203.032 3  -9790284.694 2  21102709.273    21102709.273    21102711.820
        39.000          39.000
   -615004.877 2   -479233.887 2  24449235.727    24449235.727    24449240.735
        20.000          20.000
  -1443098.941 2  -1124487.884 1  24852349.505    24852349.505    24852354.657
        13.000          14.000
  -5495446.069 3  -4274245.825 2  23210621.696    23210621.696    23210626.967
        41.000          39.000
   6379321.431 2   4961683.480 1  23993929.991    23993929.991    23993933.314
        31.000          18.000
 -17732950.663 3 -13792288.912 1  20764472.254    20764472.254    20764476.436
        47.000          19.000
   -964797.287 3                  23205733.836    23205733.836
        38.000
  -1344491.677 3  -1045714.406 1  24179254.304    24179254.304    24179259.918
        36.000          17.000
 15  3 18  0  2  0.0000000  0 14G30G10G24G13G05G29G15G20G28R21R05R07
                                R23R08
 -10763764.545 2  -8387346.304 2  23573248.530    23573248.530    23573255.227
        26.000          26.000
   -719018.923 2   -560289.818 1  25367531.455    25367531.455    25367542.788
        16.000          16.000
    -56486.219 2    -44016.009 2  23959683.775    23959683.775    23959692.017
        22.000          21.000
 -12769153.167 3  -9949986.950 2  20425686.771    20425686.771    20425689.003
        40.000          40.000
 -20755343.303 3 -16172994.661 2  20855794.241    20855794.241    20855796.416
        41.000          41.000
   1648639.240 2   1285256.939 2  24455168.288    24455168.288    24455173.669
        20.000          20.000
 -12604120.524 3  -9821389.227 2  21095113.260    21095113.260    21095115.779
        39.000          39.000
   -525731.115 2   -409670.094 2  24466224.614    24466224.614    24466230.852
        20.000          20.000
  -1485218.066 1  -1157307.927 1  24844332.401    24844332.401    24844339.355
        12.000          12.000
  -5376950.967 3  -4182083.037 2  23232766.058    23232766.058    23232770.183
        41.000          39.000
   6456352.701 2   5021596.042 2  24008336.642    24008336.642    24008348.043
        31.000          21.000
 -17780902.013 3 -13829584.404 1  20755513.035    20755513.035    20755516.129
        47.000          17.000
  -1013178.427 3                  23196687.588    23196687.588
        38.000
  -1425454.378 3  -1108685.876 1  24164135.609    24164135.609    24164145.119
        35.000          18.000
 15  3 18  0  2 30.0000000  0 14G30G10G24G13G05G29G15G20G28R21R05R07
                                R23R08
 -10680435.889 2  -8322414.892 2  23589104.438    23589104.438    23589110.763
        27.000          27.000
   -629130.035 2   -490246.809 1  25384638.636    25384638.636    25384644.703
        16.000          16.000
   -169611.555 2   -132165.546 2  23938156.867    23938156.867    23938167.341
        21.000          21.000
 -12746579.168 3  -9932396.819 2  20429982.541    20429982.541    20429984.630
        40.000          40.000
 -20726785.410 3 -16150741.771 2  20861228.610    20861228.610    20861231.271
        41.000          41.000
   1719180.737 2   1340224.294 2  24468592.642    24468592.642    24468596.591
        20.000          20.000
 -12643729.552 3  -9852253.396 2  21087575.850    21087575.850    21087578.540
        39.000          39.000
   -436319.070 2   -339998.499 1  24483238.810    24483238.810    24483241.357
        19.000          19.000
  -1527050.238 1  -1189904.418 1  24836371.993    24836371.993    24836376.486
        12.000          12.000
  -5258396.929 3  -4089874.463 2  23254919.076    23254919.076    23254925.836
        39.000          40.000
   6533490.880 2   5081592.319 1  24022766.483    24022766.483    24022775.994
        30.000          18.000
 -17828729.015 3 -13866783.659 1  20746578.963    20746578.963    20746583.489
        47.000          17.000
  -1060861.532 3                  23187774.800    23187774.800
        38.000
  -1506476.165 3  -1171702.789 1  24149007.433    24149007.433    24149010.756
        36.000          19.000
 15  3 18  0  3  0.0000000  0 14G30G10G24G13G05G29G15G20G28R21R05R07
                                R23R08
 -10596764.982 2  -8257216.804 2  23605026.402    23605026.402    23605033.213
        26.000          26.000
   -539167.198 2   -420146.164 1  25401754.912    25401754.912    25401766.760
        14.000          14.000
   -282633.238 2   -220234.304 2  23916649.408    23916649.408    23916658.023
        22.000          21.000
 -12723687.349 3  -9914559.039 2  20434338.764    20434338.764    20434340.968
        40.000          40.000
 -20697909.574 3 -16128241.142 2  20866723.513    20866723.513    20866726.175
        41.000          41.000
   1789850.586 2   1395291.652 1  24482038.808    24482038.808    24482043.215
        19.000          19.000
 -12683037.365 3  -9882882.855 2  21080096.005    21080096.005    21080098.180
        39.000          39.000
   -346777.015 2   -270225.645 2  24500278.302    24500278.302    24500283.540
        19.000          20.000
  -1568600.136 1  -1222280.940 1  24828468.170    24828468.170    24828471.347
        12.000          12.000
  -5139795.611 3  -3997629.109 2  23277083.381    23277083.381    23277088.881
        40.000          39.000
   6610729.142 2   5141666.445 1  24037215.385    24037215.385    24037223.750
        31.000          18.000
 -17876437.618 3 -13903889.843 1  20737665.821    20737665.821    20737670.118
        47.000          18.000
  -1107851.375 3                  23178991.108    23178991.108
        37.000
  -1587564.366 3  -1234770.887 1  24133864.391    24133864.391    24133868.058
        37.000          18.000
 15  3 18  0  3 30.0000000  0 14G30G10G24G13G05G29G15G20G28R21R05R07
                                R23R08
 -10512750.808 2  -8191751.263 2  23621014.439    23621014.439    23621019.963
        27.000          26.000
   -449127.504 2   -349985.648 1  25418893.472    25418893.472    25418903.059
        15.000          15.000
   -395544.774 2   -308217.254 2  23895163.838    23895163.838    23895168.474
        21.000          21.000
 -12700475.270 3  -9896471.716 2  20438755.935    20438755.935    20438758.082
        40.000          40.000
 -20668711.900 3 -16105489.728 2  20872279.160    20872279.160    20872281.908
        41.000          41.000
   1860649.287 2   1450459.462 1  24495511.243    24495511.243    24495515.335
        17.000          17.000
 -12722040.657 3  -9913275.015 2  21072673.704    21072673.704    21072676.165
        39.000          39.000
   -257102.090 2   -200349.280 2  24517342.449    24517342.449    24517347.056
        20.000          20.000
  -1609861.640 1  -1254432.668 1  24820613.790    24820613.790    24820623.348
        12.000          12.000
  -5021147.633 3  -3905347.453 2  23299255.877    23299255.877    23299260.575
        39.000          38.000
   6688071.231 2   5201821.262 2  24051686.412    24051686.412    24051693.172
        31.000          36.000
 -17924023.449 3 -13940901.031 1  20728777.110    20728777.110    20728781.980
        47.000          19.000
  -1154142.859 3                  23170335.177    23170335.177
        38.000
  -1668715.437 3  -1297888.821 1  24118710.322    24118710.322    24118715.249
        36.000          18.000
 15  3 18  0  4  0.0000000  0 14G30G10G24G13G05G29G15G20G28R21R05R07
                                R23R08
 -10428396.219 2  -8126020.421 2  23637067.333    23637067.333    23637072.084
        25.000          26.000
   -359011.429 2   -279765.645 1  25436040.226    25436040.226    25436048.297
        14.000          14.000
   -508344.305 2   -396112.913 2  23873697.465    23873697.465    23873705.421
        21.000          21.000
 -12676944.858 3  -9878136.330 2  20443233.385    20443233.385    20443235.818
        40.000          40.000
 -20639192.258 3 -16082487.432 2  20877896.899    20877896.899    20877899.532
        41.000          41.000
   1931573.739 2   1505725.147 2  24509007.843    24509007.843    24509013.138
        20.000          20.000
 -12760739.842 3  -9943430.207 2  21065309.422    21065309.422    21065311.854
        39.000          40.000
   -167294.833 2   -130369.780 1  24534430.930    24534430.930    24534435.280
        19.000          19.000
  -1650832.697 2  -1286358.145 1  24812819.544    24812819.544    24812825.926
        13.000          13.000
  -4902457.623 3  -3813033.107 2  23321436.353    23321436.353    23321442.254
        39.000          40.000
   6765517.485 2   5262057.138 2  24066174.846    24066174.846    24066179.486
        30.000          37.000
 -17971486.113 3 -13977816.428 2  20719910.946    20719910.946    20719915.415
        47.000          47.000
  -1199734.462 3   -933126.691 1  23161812.527    23161812.527    23161820.491
        39.000          17.000
  -1749929.704 3  -1361055.471 2  24103544.519    24103544.519    24103544.863
        37.000          35.000
 15  3 18  0  4 30.0000000  0 14G30G10G24G13G05G29G15G20G28R21R05R07
                                R23R08
 -10343702.859 2  -8060025.608 2  23653182.137    23653182.137    23653190.065
        25.000          25.000
   -268818.759 2   -209485.928 1  25453204.177    25453204.177    25453213.163
        15.000          15.000
   -621028.094 2   -483918.364 2  23852253.660    23852253.660    23852262.074
        22.000          22.000
 -12653096.482 3  -9859553.188 2  20447771.727    20447771.727    20447774.102
        40.000          40.000
 -20609349.333 3 -16059233.222 2  20883575.654    20883575.654    20883578.402
        41.000          41.000
   2002621.596 2   1561087.062 1  24522528.069    24522528.069    24522531.189
        18.000          19.000
 -12799134.703 3  -9973348.264 2  21058003.255    21058003.255    21058005.917
        39.000          39.000
    -77355.546 2    -60287.391 2  24551548.154    24551548.154    24551551.960
        19.000          20.000
  -1691510.068 1  -1318054.746 1  24805076.036    24805076.036    24805075.349
        11.000          11.000
  -4783729.041 3  -3720688.768 2  23343624.245    23343624.245    23343630.318
        39.000          40.000
   6843068.771 2   5322374.661 2  24080682.297    24080682.297    24080689.802
        30.000          37.000
 -18018823.841 3 -14014634.643 2  20711067.757    20711067.757    20711071.481
        48.000          47.000
  -1244623.837 3                  23153421.072    23153421.072
        37.000
  -1831206.367 3  -1424270.634 2  24088365.591    24088365.591    24088370.575
        39.000          36.000
 15  3 18  0  5  0.0000000  0 14G30G10G24G13G05G29G15G20G28R21R05R07
                                R23R08
 -10258679.961 2  -7993774.001 2  23669362.407    23669362.407    23669368.617
        26.000          26.000
   -178556.589 2   -139152.014 1  25470380.202    25470380.202    25470391.678
        14.000          14.000
   -733600.620 2   -571637.144 2  23830834.982    23830834.982    23830839.132
        23.000          23.000
 -12628938.244 3  -9840728.599 2  20452368.799    20452368.799    20452371.318
        41.000          40.000
 -20579189.177 3 -16035731.827 2  20889314.813    20889314.813    20889317.532
        41.000          41.000
   2073782.964 2   1616537.387 1  24536070.170    24536070.170    24536074.320
        17.000          17.000
 -12837231.960 3 -10003034.420 2  21050753.464    21050753.464    21050756.183
        39.000          39.000
     12708.531 2      9892.211 1  24568688.540    24568688.540    24568694.693
        19.000          19.000
  -1731897.880 1  -1349525.801 1  24797391.099    24797391.099    24797397.710
        12.000          12.000
  -4664973.043 3  -3628323.116 2  23365815.296    23365815.296    23365822.687
        38.000          39.000
   6920718.699 2   5382768.907 2  24095209.599    24095209.599    24095216.016
        31.000          37.000
 -18066042.383 3 -14051360.169 2  20702246.534    20702246.534    20702250.773
        47.000          47.000
  -1288816.031 3  -1002411.852 1  23145161.940    23145161.940    23145169.617
        38.000          16.000
  -1912552.223 3  -1487539.658 2  24073175.845    24073175.845    24073178.710
        38.000          36.000
 15  3 18  0  5 30.0000000  0 14G30G10G24G13G05G29G15G20G28R21R05R07
                                R23R08
 -10173323.938 2  -7927262.852 2  23685604.228    23685604.228    23685612.041
        26.000          26.000
    -88219.362 2    -68759.718 1  25487573.703    25487573.703    25487581.259
        17.000          17.000
   -846053.214 2   -659262.495 2  23809435.558    23809435.558    23809441.711
        22.000          22.000
 -12604465.482 3  -9821658.922 2  20457025.933    20457025.933    20457028.166
        40.000          40.000
 -20548705.386 3 -16011978.251 2  20895115.934    20895115.934    20895118.825
        41.000          41.000
   2145061.149 2   1672078.816 1  24549631.505    24549631.505    24549636.628
        17.000          17.000
 -12875025.964 3 -10032484.283 2  21043561.792    21043561.792    21043564.167
        39.000          39.000
    102903.072 2     80173.489 1  24585850.584    24585850.584    24585855.563
        19.000          19.000
  -1771988.112 2  -1380764.906 1  24789763.122    24789763.122    24789768.044
        13.000          13.000
  -4546187.690 3  -3535934.613 2  23388013.309    23388013.309    23388019.955
        39.000          39.000
   6998473.953 2   5443245.056 2  24109752.415    24109752.415    24109760.608
        30.000          37.000
 -18113134.427 3 -14087987.297 2  20693450.597    20693450.597    20693452.832
        47.000          46.000
  -1332303.067 3                  23137029.803    23137029.803
        37.000
  -1993961.302 3  -1550857.793 2  24057970.708    24057970.708    24057976.609
        35.000          35.000
 15  3 18  0  6  0.0000000  0 14G30G10G24G13G05G29G15G20G28R21R05R07
                                R23R08
 -10087636.512 2  -7860493.435 2  23701910.141    23701910.141    23701917.754
        25.000          25.000
      2193.531 2      1691.612 1  25504776.604    25504776.604    25504786.019
        16.000          17.000
   -958381.859 2   -746791.213 2  23788058.044    23788058.044    23788066.744
        23.000          23.000
 -12579678.489 3  -9802344.394 2  20461742.813    20461742.813    20461745.132
        40.000          40.000
 -20517896.731 3 -15987971.529 2  20900978.571    20900978.571    20900981.290
        41.000          41.000
   2216454.003 2   1727709.512 1  24563219.147    24563219.147    24563223.554
        18.000          17.000
 -12912515.903 3 -10061697.205 2  21036427.397    21036427.397    21036429.801
        39.000          39.000
    193228.358 2    150556.613 1  24603037.382    24603037.382    24603041.618
        17.000          18.000
  -1811777.549 1  -1411769.633 1  24782192.097    24782192.097    24782197.392
        12.000          12.000
  -4427376.376 3  -3443525.923 2  23410216.157    23410216.157    23410222.860
        39.000          38.000
   7076335.472 2   5503803.831 2  24124316.892    24124316.892    24124326.574
        30.000          37.000
 -18160098.209 3 -14124514.682 2  20684676.145    20684676.145    20684680.442
        47.000          46.000
  -1375082.428 3                  23129033.854    23129033.854
        38.000
  -2075432.534 3  -1614224.284 2  24042757.384    24042757.384    24042762.140
        37.000          35.000
 15  3 18  0  6 30.0000000  0 14G30G10G24G13G05G29G15G20G28R21R05R07
                                R23R08
 -10001624.098 2  -7793470.779 2  23718278.536    23718278.536    23718285.719
        26.000          26.000
     92677.506 2     72198.261 1  25521994.789    25521994.789    25522004.462
        15.000          16.000
  -1070588.809 2   -834225.164 2  23766705.444    23766705.444    23766713.629
        23.000          23.000
 -12554582.777 3  -9782789.294 2  20466518.626    20466518.626    20466520.687
        40.000          40.000
 -20486766.598 3 -15963714.302 2  20906902.637    20906902.637    20906905.070
        40.000          41.000
   2287954.514 2   1783424.093 1  24576825.826    24576825.826    24576831.492
        17.000          17.000
 -12949706.349 3 -10090676.760 2  21029350.547    21029350.547    21029352.579
        39.000          39.000
    283679.755 2    221038.020 1  24620250.372    24620250.372    24620253.835
        19.000          19.000
  -1851267.497 2  -1442540.993 1  24774676.621    24774676.621    24774678.109
        13.000          12.000
  -4308547.363 3  -3351103.486 2  23432421.795    23432421.795    23432429.415
        38.000          38.000
   7154299.972 2   5564442.743 2  24138901.348    24138901.348    24138911.031
        30.000          36.000
 -18206937.126 3 -14160944.937 2  20675927.065    20675927.065    20675929.815
        48.000          46.000
  -1417156.655 3                  23121168.472    23121168.472
        38.000
  -2156970.071 3  -1677642.373 2  24027532.364    24027532.364    24027535.687
        37.000          35.000
 15  3 18  0  7  0.0000000  0 14G30G10G24G13G05G29G15G20G28R21R05R07
                                R23R08
  -9915286.181 2  -7726194.488 2  23734707.750    23734707.750    23734714.390
        25.000          25.000
    183235.099 2    142762.355 1  25539230.731    25539230.731    25539239.574
        14.000          14.000
  -1182668.187 2   -921559.668 2  23745376.411    23745376.411    23745384.910
        22.000          22.000
 -12529176.447 3  -9762992.163 2  20471353.299    20471353.299    20471355.273
        40.000          40.000
 -20455311.527 3 -15939203.877 2  20912888.632    20912888.632    20912891.236
        41.000          41.000
   2359562.678 2   1839222.601 1  24590452.183    24590452.183    24590454.014
        16.000          16.000
 -12986594.188 3 -10119420.528 2  21022330.886    21022330.886    21022333.319
        39.000          39.000
    374259.582 2    291619.493 1  24637489.128    24637489.128    24637495.882
        17.000          17.000
  -1890453.174 2  -1473075.262 1  24767221.322    24767221.322    24767225.901
        15.000          15.000
  -4189701.826 3  -3258668.165 2  23454631.859    23454631.859    23454638.218
        39.000          39.000
   7232370.549 2   5625164.180 2  24153511.688    24153511.688    24153517.647
        29.000          35.000
 -18253646.903 3 -14197274.776 2  20667200.874    20667200.874    20667205.171
        47.000          47.000
  -1458520.818 3                  23113435.338    23113435.338
        38.000
  -2238570.720 3  -1741109.567 2  24012294.823    24012294.823    24012297.058
        38.000          35.000
 15  3 18  0  7 30.0000000  0 14G30G10G24G13G05G29G15G20G28R21R05R07
                                R23R08
  -9828632.969 2  -7658672.526 2  23751198.410    23751198.410    23751205.822
        24.000          24.000
    273857.914 2    213377.203 1  25556474.944    25556474.944    25556484.961
        15.000          14.000
  -1294624.804 2  -1008798.536 2  23724074.513    23724074.513    23724081.611
        23.000          23.000
 -12503468.744 3  -9742960.191 2  20476245.257    20476245.257    20476247.146
        40.000          40.000
 -20423538.880 3 -15914445.995 2  20918934.537    20918934.537    20918937.256
        41.000          41.000
   2431268.095 2   1895096.962 1  24604098.819    24604098.819    24604102.368
        17.000          16.000
 -13023187.501 3 -10147934.787 2  21015367.375    21015367.375    21015369.693
        39.000          39.000
    464959.604 2    362294.650 1  24654747.279    24654747.279    24654754.863
        18.000          18.000
  -1929339.172 2  -1503376.020 1  24759821.420    24759821.420    24759823.566
        13.000          13.000
  -4070851.706 3  -3166229.302 2  23476841.861    23476841.861    23476849.023
        38.000          39.000
   7310539.826 2   5685962.320 2  24168131.833    24168131.833    24168138.880
        29.000          36.000
 -18300234.309 3 -14233509.409 2  20658498.513    20658498.513    20658501.091
        48.000          35.000
  -1499181.426 3                  23105835.062    23105835.062
        37.000
  -2320242.057 3  -1804631.700 2  23997041.289    23997041.289    23997046.445
        38.000          37.000
 15  3 18  0  8  0.0000000  0 14G30G10G24G13G05G29G15G20G28R21R05R07
                                R23R08
  -9741656.119 2  -7590898.343 2  23767749.125    23767749.125    23767754.190
        25.000          26.000
    364556.715 2    284051.179 1  25573735.533    25573735.533    25573743.889
        17.000          16.000
  -1406445.559 2  -1095931.523 2  23702794.913    23702794.913    23702800.522
        23.000          23.000
 -12477450.005 3  -9722685.858 2  20481196.208    20481196.208    20481198.440
        40.000          40.000
 -20391437.381 3 -15889431.846 2  20925043.180    20925043.180    20925045.785
        41.000          41.000
   2503078.650 2   1951053.189 1  24617761.503    24617761.503    24617767.313
        17.000          17.000
 -13059475.687 3 -10176211.281 2  21008462.024    21008462.024    21008464.285
        39.000          39.000
    555790.245 2    433071.554 1  24672031.504    24672031.504    24672037.571
        17.000          18.000
  -1967912.511 2  -1533433.126 1  24752477.808    24752477.808    24752483.074
        13.000          13.000
  -3951990.167 3  -3073781.544 2  23499054.855    23499054.855    23499060.813
        39.000          39.000
   7388819.022 2   5746845.940 2  24182774.818    24182774.818    24182783.583
        28.000          35.000
 -18346687.319 3 -14269639.528 2  20649820.345    20649820.345    20649824.183
        48.000          47.000
  -1539126.147 3                  23098366.405    23098366.405
        36.000
  -2401973.281 3  -1868200.392 2  23981780.745    23981780.745    23981782.808
        37.000          36.000
 15  3 18  0  8 30.0000000  0 14G30G10G24G13G05G29G15G20G28R21R05R07
                                R23R08
  -9654362.798 2  -7522877.584 2  23784360.478    23784360.478    23784367.318
        26.000          26.000
    455326.215 2    354780.354 1  25591008.674    25591008.674    25591020.522
        16.000          16.000
  -1518132.378 2  -1182960.137 2  23681540.175    23681540.175    23681548.388
        24.000          24.000
 -12451126.048 3  -9702173.692 2  20486205.522    20486205.522    20486207.725
        40.000          40.000
 -20359010.897 3 -15864164.474 2  20931213.583    20931213.583    20931216.445
        41.000          41.000
   2574986.645 2   2007085.230 1  24631445.130    24631445.130    24631450.425
        17.000          17.000
 -13095463.610 3 -10204253.804 2  21001613.643    21001613.643    21001616.448
        39.000          40.000
    646745.369 2    503945.515 1  24689339.350    24689339.350    24689347.563
        17.000          17.000
  -2006175.701 2  -1563248.522 1  24745196.956    24745196.956    24745202.135
        13.000          13.000
  -3833126.242 3  -2981331.948 2  23521266.862    23521266.862    23521272.877
        38.000          39.000
   7467204.239 2   5807812.066 2  24197438.018    24197438.018    24197446.153
        29.000          36.000
 -18393009.501 3 -14305667.897 2  20641166.602    20641166.602    20641170.555
        48.000          47.000
  -1578358.175 3                  23091034.141    23091034.141
        38.000
  -2483769.004 3  -1931819.266 2  23966505.686    23966505.686    23966508.780
        38.000          36.000
 15  3 18  0  9  0.0000000  0 14G30G10G24G13G05G29G15G20G28R21R05R07
                                R23R08
  -9566751.119 2  -7454608.761 2  23801032.737    23801032.737    23801039.577
        25.000          25.000
    546170.488 2    425567.722 1  25608293.995    25608293.995    25608307.817
        16.000          16.000
  -1629678.350 2  -1269879.011 2  23660316.019    23660316.019    23660322.716
        24.000          23.000
 -12424494.194 3  -9681421.596 2  20491273.588    20491273.588    20491275.763
        40.000          40.000
 -20326254.735 3 -15838640.211 2  20937446.948    20937446.948    20937449.924
        41.000          41.000
   2646993.243 2   2063194.192 1  24645147.928    24645147.928    24645155.426
        19.000          19.000
 -13131147.207 3 -10232059.193 2  20994823.394    20994823.394    20994825.827
        40.000          40.000
    737829.273 2    574919.730 1  24706674.424    24706674.424    24706677.630
        15.000          15.000
  -2044121.944 2  -1592816.979 1  24737977.738    24737977.738    24737979.054
        13.000          13.000
  -3714259.498 3  -2888880.140 2  23543480.507    23543480.507    23543485.090
        38.000          38.000
   7545699.836 2   5868864.045 2  24212120.403    24212120.403    24212130.888
        28.000          35.000
 -18439195.437 3 -14341590.283 2  20632539.474    20632539.474    20632542.109
        48.000          47.000
  -1616871.268 3  -1257566.005 2  23083833.412    23083833.412    23083841.032
        38.000          33.000
  -2565624.619 3  -1995484.776 2  23951217.203    23951217.203    23951222.188
        37.000          35.000
 15  3 18  0  9 30.0000000  0 14G30G10G24G13G05G29G15G20G28R21R05R07
                                R23R08
  -9478834.695 2  -7386102.454 2  23817762.752    23817762.752    23817768.791
        25.000          25.000
    637078.013 1    496404.375 1  25625592.471    25625592.471    25625600.713
        12.000          12.000
  -1741092.380 2  -1356695.083 2  23639113.215    23639113.215    23639123.059
        25.000          24.000
 -12397566.722 3  -9660439.154 2  20496397.657    20496397.657    20496399.947
        40.000          40.000
 -20293179.373 3 -15812867.223 2  20943741.022    20943741.022    20943743.798
        41.000          41.000
   2719084.520 2   2119369.153 2  24658867.097    24658867.097    24658871.676
        19.000          20.000
 -13166537.891 3 -10259636.345 2  20988088.546    20988088.546    20988091.264
        39.000          39.000
    829030.248 2    645985.246 1  24724028.523    24724028.523    24724039.054
        17.000          17.000
  -2081759.693 2  -1622145.077 1  24730815.817    24730815.817    24730818.936
        13.000          13.000
  -3595405.520 3  -2796438.308 2  23565690.916    23565690.916    23565697.849
        39.000          39.000
   7624295.023 2   5929993.476 2  24226827.548    24226827.548    24226834.767
        28.000          36.000
 -18485255.607 3 -14377414.858 2  20623934.046    20623934.046    20623937.827
        48.000          47.000
  -1654675.672 3  -1286969.450 2  23076767.595    23076767.595    23076774.183
        38.000          33.000
  -2647551.306 3  -2059205.485 2  23935920.850    23935920.850    23935923.428
        36.000          35.000
 15  3 18  0 10  0.0000000  0 14G30G10G24G13G05G29G15G20G28R21R05R07
                                R23R08
  -9390610.232 2  -7317356.133 2  23834550.384    23834550.384    23834557.796
        25.000          25.000
    728053.732 2    567294.180 1  25642907.774    25642907.774    25642913.441
        14.000          14.000
  -1852365.503 2  -1443401.342 2  23617939.705    23617939.705    23617947.604
        24.000          24.000
 -12370338.882 3  -9639222.653 2  20501578.914    20501578.914    20501581.318
        40.000          40.000
 -20259779.005 3 -15786840.978 2  20950097.040    20950097.040    20950099.873
        41.000          41.000
   2791263.559 2   2175612.521 1  24672601.747    24672601.747    24672608.357
        14.000          15.000
 -13201630.035 3 -10286980.853 2  20981410.634    20981410.634    20981413.296
        39.000          39.000
    920353.257 2    717145.821 1  24741406.402    24741406.402    24741411.639
        17.000          17.000
  -2119081.339 1  -1651226.843 1  24723713.492    24723713.492    24723717.269
        12.000          12.000
  -3476562.352 3  -2704004.839 2  23587899.111    23587899.111    23587905.069
        38.000          38.000
   7702995.928 2   5991205.077 2  24241550.628    24241550.628    24241559.279
        30.000          35.000
 -18531182.497 3 -14413135.754 2  20615355.194    20615355.194    20615358.403
        48.000          47.000
  -1691763.965 3  -1315815.917 2  23069834.966    23069834.966    23069841.039
        38.000          33.000
  -2729543.154 3  -2122976.934 2  23920607.554    23920607.554    23920612.711
        37.000          35.000
 15  3 18  0 10 30.0000000  0 14G30G10G24G13G05G29G15G20G28R21R05R07
                                R23R08
  -9302080.214 2  -7248371.724 2  23851396.895    23851396.895    23851404.765
        24.000          24.000
    819097.329 2    638236.865 1  25660229.863    25660229.863    25660243.829
        16.000          16.000
  -1963495.210 2  -1529995.858 2  23596790.232    23596790.232    23596797.616
        25.000          26.000
 -12342812.170 3  -9617773.269 2  20506816.821    20506816.821    20506819.311
        40.000          40.000
 -20226053.211 3 -15760561.163 2  20956514.921    20956514.921    20956517.439
        41.000          41.000
   2863527.395 2   2231921.976 1  24686353.818    24686353.818    24686355.907
        13.000          13.000
 -13236424.001 3 -10314093.016 2  20974789.765    20974789.765    20974792.483
        39.000          39.000
   1011797.890 2    788401.168 1  24758808.914    24758808.914    24758816.327
        17.000          17.000
  -2156084.370 2  -1680060.297 1  24716671.997    24716671.997    24716677.520
        13.000          13.000
  -3357734.260 3  -2611583.110 2  23610105.653    23610105.653    23610112.356
        38.000          38.000
   7781802.931 2   6052499.198 2  24256293.968    24256293.968    24256301.359
        28.000          34.000
 -18576975.523 3 -14448752.553 2  20606800.014    20606800.014    20606804.139
        48.000          47.000
  -1728134.918 3  -1344104.474 2  23063033.797    23063033.797    23063041.245
        38.000          32.000
  -2811599.937 3  -2186798.878 2  23905285.438    23905285.438    23905288.245
        37.000          36.000
 15  3 18  0 11  0.0000000  0 14G30G10G24G13G05G29G15G20G28R21R05R07
                                R23R08
  -9213243.877 2  -7179148.616 2  23868303.123    23868303.123    23868308.961
        24.000          24.000
    910211.974 2    709234.852 1  25677569.803    25677569.803    25677578.675
        14.000          15.000
  -2074475.768 2  -1616474.155 2  23575673.305    23575673.305    23575680.431
        25.000          25.000
 -12314984.544 3  -9596089.409 2  20512112.455    20512112.455    20512114.715
        40.000          40.000
 -20191998.113 3 -15734024.733 2  20962995.295    20962995.295    20962997.585
        41.000          41.000
   2935876.291 2   2288297.664 2  24700119.911    24700119.911    24700124.919
        20.000          20.000
 -13270916.798 3 -10340970.505 2  20968226.016    20968226.016    20968228.563
        39.000          39.000
   1103366.725 2    859753.257 1  24776232.320    24776232.320    24776241.650
        14.000          14.000
  -2192763.311 1  -1708641.284 1  24709690.714    24709690.714    24709697.983
        12.000          13.000
  -3238921.828 3  -2519173.554 2  23632309.249    23632309.249    23632315.666
        38.000          38.000
   7860719.949 2   6113878.907 2  24271056.182    24271056.182    24271063.745
        28.000          34.000
 -18622629.700 3 -14484261.346 2  20598272.048    20598272.048    20598275.200
        48.000          47.000
  -1763783.690 3  -1371831.316 2  23056369.840    23056369.840    23056379.293
        37.000          33.000
  -2893718.205 3  -2250668.618 2  23889949.396    23889949.396    23889951.974
        38.000          35.000
 15  3 18  0 11 30.0000000  0 14G30G10G24G13G05G29G15G20G28R21R05R07
                                R23R08
  -9124109.311 2  -7109693.109 2  23885264.301    23885264.301    23885271.484
        24.000          24.000
   1001391.517 2    780283.449 1  25694921.240    25694921.240    25694933.832
        13.000          13.000
  -2185310.120 2  -1702838.529 2  23554582.875    23554582.875    23554588.971
        26.000          26.000
 -12286862.988 3  -9574176.514 2  20517463.789    20517463.789    20517466.307
        40.000          40.000
 -20157618.211 3 -15707235.216 2  20969537.879    20969537.879    20969540.426
        41.000          41.000
   3008301.691 2   2344732.950 2  24713904.273    24713904.273    24713907.965
        21.000          21.000
 -13305114.253 3 -10367617.847 2  20961718.456    20961718.456    20961721.003
        39.000          39.000
   1195053.511 2    931197.285 1  24793681.334    24793681.334    24793690.979
        15.000          15.000
  -2229121.486 2  -1736972.284 1  24702774.319    24702774.319    24702776.952
        14.000          14.000
  -3120134.937 3  -2426783.873 2  23654507.257    23654507.257    23654512.413
        38.000          36.000
   7939741.388 2   6175339.806 2  24285838.817    24285838.817    24285846.896
        28.000          34.000
 -18668149.793 3 -14519665.866 2  20589768.006    20589768.006    20589771.845
        48.000          47.000
  -1798714.387 3  -1398999.631 2  23049838.979    23049838.979    23049849.292
        37.000          33.000
  -2975903.402 3  -2314590.432 2  23874600.276    23874600.276    23874605.318
        36.000          36.000
 15  3 18  0 12  0.0000000  0 14G30G10G24G13G05G29G15G20G28R21R05R07
                                R23R08
  -9034670.402 2  -7040000.488 2  23902284.370    23902284.370    23902290.465
        25.000          25.000
   1092643.904 2    851388.853 1  25712284.522    25712284.522    25712298.287
        15.000          15.000
  -2295987.147 2  -1789080.302 2  23533520.375    23533520.375    23533527.759
        27.000          27.000
 -12258440.131 3  -9552028.839 2  20522872.325    20522872.325    20522874.987
        40.000          40.000
 -20122905.297 3 -15680186.209 2  20976143.042    20976143.042    20976146.047
        40.000          40.000
   3080809.263 2   2401232.287 1  24727701.708    24727701.708    24727706.659
        19.000          19.000
 -13339007.860 3 -10394028.441 2  20955268.594    20955268.594    20955271.285
        39.000          39.000
   1286866.033 2   1002739.289 1  24811152.856    24811152.856    24811159.323
        16.000          16.000
  -2265147.616 2  -1765044.578 1  24695917.541    24695917.541    24695921.891
        14.000          14.000
  -3001368.918 3  -2334410.433 2  23676700.428    23676700.428    23676708.392
        38.000          38.000
   8018876.380 2   6236889.043 2  24300641.734    24300641.734    24300651.932
        28.000          33.000
 -18713526.172 3 -14554958.598 2  20581291.164    20581291.164    20581295.060
        48.000          47.000
  -1832917.597 3  -1425602.148 2  23043444.794    23043444.794    23043454.419
        38.000          33.000
  -3058146.623 3  -2378557.400 2  23859241.637    23859241.637    23859247.710
        36.000          35.000
 15  3 18  0 12 30.0000000  0 14G30G10G24G13G05G29G15G20G28R21R05R07
                                R23R08
  -8944947.308 2  -6970086.418 2  23919358.812    23919358.812    23919364.907
        24.000          24.000
   1183951.112 2    922536.944 1  25729661.585    25729661.585    25729672.660
        13.000          13.000
  -2406521.973 2  -1875211.261 2  23512486.550    23512486.550    23512491.358
        27.000          27.000
 -12229734.932 3  -9529661.162 2  20528334.735    20528334.735    20528337.397
        40.000          40.000
 -20087876.505 3 -15652891.073 2  20982809.145    20982809.145    20982811.749
        41.000          40.000
   3153378.239 2   2457779.429 1  24741509.360    24741509.360    24741514.826
        14.000          14.000
 -13372615.613 3 -10420216.279 2  20948873.427    20948873.427    20948875.831
        39.000          39.000
   1378786.195 2   1074365.093 1  24828643.994    24828643.994    24828653.868
        16.000          17.000
  -2300857.636 2  -1792870.534 1  24689119.828    24689119.828    24689126.582
        14.000          14.000
  -2882645.783 3  -2242070.334 2  23698886.772    23698886.772    23698894.278
        37.000          37.000
   8098107.394 2   6298512.930 2  24315467.011    24315467.011    24315474.230
        27.000          34.000
 -18758775.351 3 -14590152.391 2  20572839.740    20572839.740    20572842.089
        48.000          47.000
  -1866409.706 3  -1451651.574 2  23037185.973    23037185.973    23037193.593
        38.000          34.000
  -3140465.848 3  -2442583.447 2  23843870.926    23843870.926    23843872.931
        37.000          36.000
 15  3 18  0 13  0.0000000  0 14G30G10G24G13G05G29G15G20G28R21R05R07
                                R23R08
  -8854925.418 2  -6899939.533 2  23936488.880    23936488.880    23936494.575
        24.000          24.000
   1275329.807 1    993740.787 1  25747049.533    25747049.533    25747057.976
        11.000          11.000
  -2516894.670 2  -1961215.912 2  23491483.862    23491483.862    23491490.072
        27.000          27.000
 -12200731.648 3  -9507061.209 2  20533853.910    20533853.910    20533856.285
        40.000          40.000
 -20052514.278 3 -15625336.110 2  20989538.142    20989538.142    20989541.147
        41.000          41.000
   3226023.363 2   2514386.029 1  24755336.053    24755336.053    24755337.856
        14.000          14.000
 -13405920.701 3 -10446168.279 2  20942535.775    20942535.775    20942537.864
        39.000          39.000
   1470830.365 2   1146087.604 1  24846156.990    24846156.990    24846165.919
        15.000          16.000
  -2336231.890 1  -1820434.851 1  24682389.733    24682389.733    24682396.373
        12.000          11.000
  -2763952.062 3  -2149753.143 2  23721067.267    23721067.267    23721075.632
        36.000          37.000
   8177452.041 2   6360225.225 2  24330308.427    24330308.427    24330318.969
        27.000          32.000
 -18803878.900 3 -14625232.934 2  20564411.880    20564411.880    20564416.979
        48.000          47.000
  -1899172.265 3  -1477133.586 2  23031061.905    23031061.905    23031067.978
        39.000          33.000
  -3222843.493 3  -2506654.961 2  23828487.485    23828487.485    23828489.089
        37.000          35.000
 15  3 18  0 13 30.0000000  0 14G30G10G24G13G05G29G15G20G28R21R05R07
                                R23R08
  -8764612.139 2  -6829565.569 2  23953674.736    23953674.736    23953682.434
        24.000          24.000
   1366774.672 1   1064996.152 1  25764452.230    25764452.230    25764461.732
        11.000          10.000
  -2627107.738 2  -2047096.168 2  23470510.304    23470510.304    23470518.489
        27.000          27.000
 -12171436.739 3  -9484234.009 2  20539428.648    20539428.648    20539430.909
        40.000          40.000
 -20016822.996 3 -15597524.737 2  20996330.184    20996330.184    20996332.874
        41.000          41.000
   3298736.654 2   2571045.725 1  24769172.386    24769172.386    24769175.191
        19.000          18.000
 -13438928.524 3 -10471888.646 2  20936254.494    20936254.494    20936256.870
        39.000          40.000
   1562993.069 2   1217902.373 1  24863700.086    24863700.086    24863704.980
        15.000          15.000
  -2371273.036 2  -1847739.542 1  24675721.256    24675721.256    24675724.833
        13.000          13.000
  -2645296.817 3  -2057465.866 2  23743242.623    23743242.623    23743248.409
        37.000          37.000
   8256906.032 2   6422022.575 2  24345168.961    24345168.961    24345177.727
        26.000          34.000
 -18848840.669 3 -14660203.193 2  20556013.978    20556013.978    20556017.415
        48.000          48.000
  -1931209.119 3  -1502051.181 2  23025072.079    23025072.079    23025078.553
        38.000          33.000
  -3305284.087 3  -2570775.389 2  23813093.191    23813093.191    23813095.025
        36.000          36.000
 15  3 18  0 14  0.0000000  0 14G30G10G24G13G05G29G15G20G28R21R05R07
                                R23R08
  -8674011.543 2  -6758967.747 2  23970915.350    23970915.350    23970921.560
        25.000          25.000
   1458283.852 2   1136301.466 1  25781866.472    25781866.472    25781872.682
        14.000          14.000
  -2737160.295 2  -2132851.331 2  23449567.377    23449567.377    23449575.304
        27.000          27.000
 -12141852.241 3  -9461181.149 2  20545058.418    20545058.418    20545060.736
        40.000          40.000
 -19980803.821 3 -15569457.870 2  21003184.525    21003184.525    21003187.157
        41.000          41.000
   3371513.722 2   2627755.042 1  24783020.745    24783020.745    24783024.665
        18.000          18.000
 -13471640.683 3 -10497378.625 2  20930029.350    20930029.350    20930032.040
        40.000          40.000
   1655271.895 2   1289807.649 1  24881258.750    24881258.750    24881269.081
        16.000          16.000
  -2405980.384 1  -1874784.217 1  24669116.758    24669116.758    24669120.478
        12.000          12.000
  -2526685.752 3  -1965212.957 2  23765407.854    23765407.854    23765415.016
        37.000          37.000
   8336467.682 2   6483903.553 2  24360053.926    24360053.926    24360066.130
        24.000          31.000
 -18893660.615 3 -14695063.149 2  20547640.554    20547640.554    20547644.851
        49.000          47.000
  -1962520.742 3  -1526404.701 2  23019219.298    23019219.298    23019227.892
        39.000          32.000
  -3387789.488 3  -2634946.259 2  23797684.922    23797684.922    23797687.558
        37.000          35.000
 15  3 18  0 14 30.0000000  0 14G30G10G24G13G05G29G15G20G28R21R05R07
                                R23R08
  -8583128.163 2  -6688149.577 2  23988208.947    23988208.947    23988218.935
        23.000          23.000
   1549854.426 2   1207654.813 1  25799293.265    25799293.265    25799304.884
        13.000          13.000
  -2847051.586 2  -2218480.854 2  23428656.643    23428656.643    23428662.910
        28.000          27.000
 -12111982.233 3  -9437905.828 2  20550742.278    20550742.278    20550744.711
        40.000          40.000
 -19944458.108 3 -15541136.561 2  21010100.987    21010100.987    21010103.706
        41.000          41.000
   3444349.655 2   2684510.240 1  24796881.366    24796881.366    24796885.316
        17.000          16.000
 -13504059.458 3 -10522639.986 2  20923860.346    20923860.346    20923862.979
        40.000          40.000
   1747664.302 1   1361801.495 1  24898839.202    24898839.202    24898846.700
        12.000          12.000
  -2440353.717 1  -1901568.535 1  24662575.696    24662575.696    24662581.534
        12.000          12.000
  -2408124.849 3  -1872999.069 2  23787564.389    23787564.389    23787570.920
        37.000          37.000
   8416135.169 2   6545866.865 2  24374960.898    24374960.898    24374967.429
        25.000          32.000
 -18938339.998 3 -14729813.779 2  20539294.731    20539294.731    20539297.653
        48.000          47.000
  -1993108.458 3  -1550195.186 2  23013501.674    23013501.674    23013508.320
        39.000          33.000
  -3470361.017 3  -2699168.585 2  23782266.190    23782266.190    23782268.596
        36.000          36.000
 15  3 18  0 15  0.0000000  0 14G30G10G24G13G05G29G15G20G28R21R05R07
                                R23R08
  -8491959.646 2  -6617109.204 2  24005558.584    24005558.584    24005565.596
        23.000          24.000
   1641490.854 2   1279059.440 1  25816731.029    25816731.029    25816739.643
        13.000          13.000
  -2956774.072 2  -2303978.845 2  23407776.121    23407776.121    23407782.703
        27.000          27.000
 -12081822.880 3  -9414405.043 2  20556481.434    20556481.434    20556484.038
        40.000          40.000
 -19907781.340 3 -15512557.286 2  21017080.484    21017080.484    21017082.745
        41.000          41.000
   3517246.167 2   2741312.645 1  24810752.714    24810752.714    24810757.436
        16.000          17.000
 -13536180.639 3 -10547669.478 2  20917747.952    20917747.952    20917750.499
        40.000          40.000
   1840174.424 2   1433886.966 1  24916445.638    24916445.638    24916452.192
        14.000          14.000
  -2474386.060 2  -1928087.201 1  24656099.114    24656099.114    24656103.722
        13.000          13.000
  -2289613.182 3  -1780823.436 2  23809710.342    23809710.342    23809717.904
        38.000          37.000
   8495914.047 2   6607916.889 2  24389881.293    24389881.293    24389888.398
        26.000          31.000
 -18982872.686 3 -14764450.317 2  20530975.140    20530975.140    20530979.151
        48.000          48.000
  -2022966.224 3  -1573417.924 2  23007919.546    23007919.546    23007927.166
        39.000          32.000
  -3552993.718 3  -2763438.457 2  23766832.943    23766832.943    23766836.496
        36.000          36.000
 15  3 18  0 15 30.0000000  0 14G30G10G24G13G05G29G15G20G28R21R05R07
                                R23R08
  -8400513.312 2  -6545852.358 2  24022960.767    24022960.767    24022966.834
        24.000          24.000
   1733188.337 2   1350511.525 1  25834177.885    25834177.885    25834190.334
        13.000          13.000
  -3066329.662 2  -2389346.774 2  23386929.747    23386929.747    23386935.757
        28.000          28.000
 -12051380.246 3  -9390683.520 2  20562274.555    20562274.555    20562276.587
        40.000          40.000
 -19870777.490 3 -15483723.139 2  21024121.450    21024121.450    21024124.370
        41.000          40.000
   3590195.401 2   2798156.164 1  24824635.317    24824635.317    24824640.640
        17.000          17.000
 -13568008.972 3 -10572470.758 2  20911691.058    20911691.058    20911693.691
        40.000          40.000
   1932796.764 2   1506059.892 1  24934068.726    24934068.726    24934080.832
        14.000          14.000
  -2508079.998 2  -1954342.147 1  24649686.322    24649686.322    24649692.618
        14.000          14.000
  -2171159.479 3  -1688692.923 2  23831847.091    23831847.091    23831852.132
        37.000          35.000
   8575799.631 2                  24404829.792    24404829.792
        24.000
 -19027262.100 3 -14798975.409 2  20522682.926    20522682.926    20522686.191
        48.000          37.000
  -2052097.440 3  -1596075.516 2  23002473.298    23002473.298    23002480.976
        39.000          33.000
  -3635692.529 3  -2827759.731 2  23751389.768    23751389.768    23751393.034
        36.000          36.000
 15  3 18  0 16  0.0000000  0 14G30G10G24G13G05G29G15G20G28R21R05R07
                                R23R08
  -8308787.809 2  -6474377.986 2  24040414.008    24040414.008    24040421.191
        23.000          23.000
   1824949.850 1   1422013.555 1  25851641.903    25851641.903    25851657.557
        10.000          10.000
  -3175712.760 2  -2474580.304 2  23366113.900    23366113.900    23366120.997
        28.000          28.000
 -12020651.733 3  -9366739.229 2  20568121.736    20568121.736    20568124.255
        40.000          40.000
 -19833442.117 3 -15454630.664 2  21031226.559    21031226.559    21031229.421
        41.000          41.000
   3663198.680 2   2855041.823 1  24838525.586    24838525.586    24838531.568
        17.000          17.000
 -13599540.866 3 -10597041.051 2  20905690.724    20905690.724    20905693.471
        40.000          40.000
   2025534.440 2   1578322.667 1  24951718.280    24951718.280    24951725.320
        13.000          13.000
  -2541429.551 2  -1980328.770 1  24643342.675    24643342.675    24643346.767
        14.000          14.000
  -2052763.986 3  -1596607.698 2  23853972.939    23853972.939    23853979.299
        37.000          37.000
   8655796.343 2   6732269.125 2  24419793.337    24419793.337    24419804.910
        23.000          30.000
 -19071503.313 3 -14833385.248 2  20514417.852    20514417.852    20514422.207
        48.000          47.000
  -2080497.661 3  -1618164.590 2  22997164.787    22997164.787    22997171.261
        39.000          33.000
  -3718452.978 3  -2892128.965 2  23735934.868    23735934.868    23735939.624
        36.000          37.000
 15  3 18  0 16 30.0000000  0 14G30G10G24G13G05G29G15G20G28R21R05R07
                                R23R08
  -8216790.663 2  -6402691.955 2  24057921.269    24057921.269    24057927.851
        23.000          23.000
   1916769.773 2   1493561.084 1  25869115.270    25869115.270    25869123.941
        14.000          14.000
  -3284925.416 2  -2559681.018 2  23345332.171    23345332.171    23345339.240
        28.000          28.000
 -11989643.642 3  -9342577.087 2  20574022.543    20574022.543    20574024.890
        39.000          39.000
 -19795780.309 3 -15425283.820 2  21038393.150    21038393.150    21038396.183
        41.000          41.000
   3736248.067 2   2911963.371 1  24852428.171    24852428.171    24852430.346
        18.000          18.000
 -13630781.808 3 -10621384.632 2  20899745.962    20899745.962    20899748.280
        40.000          40.000
   2118381.809 2   1650670.926 1  24969387.799    24969387.799    24969393.408
        14.000          15.000
  -2574437.597 2  -2006049.245 1  24637061.799    24637061.799    24637069.468
        14.000          14.000
  -1934435.708 3  -1504574.751 2  23876083.224    23876083.224    23876090.042
        37.000          35.000
   8735898.891 2   6794570.825 2  24434781.011    24434781.011    24434788.975
        25.000          30.000
 -19115599.933 3 -14867682.620 2  20506180.031    20506180.031    20506184.328
        48.000          47.000
  -2108171.482 3  -1639688.700 2  22991990.770    22991990.770    22991998.332
        39.000          33.000
  -3801279.920 3  -2956549.927 2  23720469.470    23720469.470    23720471.934
        37.000          38.000
 15  3 18  0 17  0.0000000  0 14G30G10G24G13G05G29G15G20G28R21R05R07
                                R23R08
  -8124518.841 2  -6330791.853 2  24075479.450    24075479.450    24075488.294
        23.000          24.000
   2008653.524 1   1565158.312 1  25886598.245    25886598.245    25886610.236
        11.000          11.000
  -3393959.248 2  -2644642.392 2  23324583.369    23324583.369    23324588.148
        27.000          27.000
 -11958351.722 3  -9318193.781 2  20579977.405    20579977.405    20579979.780
        40.000          40.000
 -19757786.008 3 -15395677.906 2  21045623.413    21045623.413    21045626.247
        41.000          41.000
   3809346.197 2   2968922.850 1  24866336.410    24866336.410    24866342.019
        17.000          16.000
 -13661726.600 3 -10645497.451 2  20893857.383    20893857.383    20893859.759
        40.000          40.000
   2211343.632 1   1723108.404 1  24987077.818    24987077.818    24987086.661
        12.000          12.000
  -2607096.243 1  -2031497.449 1  24630846.217    24630846.217    24630848.707
        11.000          11.000
  -1816172.773 3  -1412592.612 2  23898184.144    23898184.144    23898191.821
        36.000          37.000
   8816113.849 2   6856959.895 2  24449785.629    24449785.629    24449796.343
        24.000          30.000
 -19159545.163 3 -14901862.240 2  20497971.746    20497971.746    20497974.725
        48.000          48.000
  -2135111.437 3  -1660642.001 2  22986955.439    22986955.439    22986963.173
        39.000          32.000
  -3884167.552 3  -3021018.048 2  23704990.001    23704990.001    23704991.834
        36.000          36.000
 15  3 18  0 17 30.0000000  0 14G30G10G24G13G05G29G15G20G28R21R05R07
                                R23R08
  -8031976.513 2  -6258681.021 2  24093089.479    24093089.479    24093096.290
        22.000          23.000
   2100598.749 1   1636803.569 1  25904096.357    25904096.357    25904099.906
        11.000          11.000
  -3502813.843 2  -2729464.099 2  23303868.366    23303868.366    23303875.062
        28.000          28.000
 -11926779.262 3  -9293591.869 2  20585985.650    20585985.650    20585987.854
        40.000          40.000
 -19719460.589 3 -15365813.967 2  21052916.558    21052916.558    21052919.678
        41.000          40.000
   3882488.700 2   3025916.931 1  24880255.349    24880255.349    24880261.444
        18.000          18.000
 -13692377.165 3 -10669381.004 2  20888024.635    20888024.635    20888026.953
        40.000          40.000
   2304417.518 2   1795633.156 1  25004790.229    25004790.229    25004795.895
        13.000          13.000
  -2639405.365 2  -2056673.363 1  24624698.916    24624698.916    24624700.376
        14.000          14.000
  -1697980.973 3  -1320665.781 2  23920273.031    23920273.031    23920277.672
        36.000          33.000
   8896439.549 2   6919435.051 2  24464807.850    24464807.850    24464818.105
        26.000          31.000
 -19203339.524 3 -14935924.521 2  20489789.846    20489789.846    20489793.742
        48.000          48.000
  -2161318.936 3  -1681025.653 2  22982055.641    22982055.641    22982063.547
        39.000          33.000
  -3967117.137 3  -3085534.388 2  23689499.590    23689499.590    23689503.199
        37.000          37.000
 15  3 18  0 18  0.0000000  0 14G30G10G24G13G05G29G15G20G28R21R05R07
                                R23R08
  -7939170.547 2  -6186364.719 2  24110749.907    24110749.907    24110755.774
        23.000          24.000
   2192600.620 1   1708492.890 1  25921602.454    25921602.454    25921608.149
         8.000           8.000
  -3611490.491 2  -2814147.148 2  23283187.920    23283187.920    23283194.302
        28.000          28.000
 -11894931.551 3  -9268775.485 2  20592046.172    20592046.172    20592048.147
        40.000          40.000
 -19680807.780 3 -15335694.917 2  21060271.803    21060271.803    21060274.637
        41.000          41.000
   3955668.045 2   3082939.755 1  24894182.134    24894182.134    24894187.200
        18.000          18.000
 -13722737.819 3 -10693038.646 2  20882247.261    20882247.261    20882249.465
        40.000          40.000
   2397598.584 2   1868241.415 1  25022523.588    25022523.588    25022528.281
        14.000          14.000
  -2671366.835 2  -2081578.345 1  24618616.852    24618616.852    24618619.914
        15.000          15.000
  -1579868.498 3  -1228800.699 2  23942343.460    23942343.460    23942351.595
        35.000          36.000
   8976871.699 2   6981993.136 2  24479860.844    24479860.844    24479863.365
        21.000          29.000
 -19246985.950 3 -14969871.754 2  20481636.918    20481636.918    20481639.783
        48.000          48.000
  -2186797.700 3  -1700842.473 2  22977293.508    22977293.508    22977300.440
        40.000          33.000
  -4050133.075 3  -3150102.319 2  23673994.777    23673994.777    23673999.016
        35.000          37.000
 15  3 18  0 18 30.0000000  0 14G30G10G24G13G05G29G15G20G28R21R05R07
                                R23R08
  -7846099.899 2  -6113842.178 2  24128463.573    24128463.573    24128467.666
        22.000          22.000
                                  25939125.212

  -3719983.485 2  -2898687.108 2  23262542.242    23262542.242    23262548.424
        28.000          28.000
 -11862806.329 3  -9243742.857 2  20598159.124    20598159.124    20598161.443
        40.000          40.000
 -19641823.905 3 -15305317.900 2  21067690.504    21067690.504    21067692.822
        40.000          40.000
   4028885.180 2   3139992.035 1  24908113.836    24908113.836    24908121.077
        16.000          16.000
 -13752805.686 3 -10716468.137 2  20876525.592    20876525.592    20876527.853
        40.000          40.000
   2490889.578 2   1940935.365 1  25040275.784    25040275.784    25040285.915
        14.000          15.000
  -2702975.126 2  -2106208.132 1  24612601.351    24612601.351    24612607.332
        16.000          16.000
  -1461835.778 3  -1136997.602 2  23964399.967    23964399.967    23964410.051
        35.000          35.000
   9057414.746 2   7044637.422 2  24494925.650    24494925.650    24494933.384
        25.000          32.000
